equihen-plage
---
layout: location

title: Equihen Plage
lat: 50.66948354087614
lon: 1.5633201599121094
assets: photos/Equihen-Plage/EquihenPlage
---

saint-pierre-en-port
---
layout: location

title: Saint-Pierre-en-Port
lat: 49.815280917615716
lon: 0.4796218872070312
assets: photos/St-Pierre-en-Port/StPierreenPort
---

cayeux-sur-mer
---
layout: location

title: Cayeux-sur-mer
lat: 50.18178999148923
lon: 1.4862442016601562
assets: photos/Cayeux-sur-Mer/CayeuxsurMer
---

les-petites-dalles
---
layout: location

title: Les Petites Dalles
lat: 49.83897886173504
lon: 0.5481147766113281
assets: photos/Petites-Dalles/PetitesDalles
---

les-grandes-dalles
---
layout: location

title: Les Grandes Dalles
lat: 49.82989971308882
lon: 0.5139541625976562
assets: photos/Grandes-Dalles/GrandesDalles
---

le-crotoy
---
layout: location

title: Le Crotoy
lat: 50.22458621202491
lon: 1.6242599487304685
assets: photos/Crotoy/LeCrotoy1
---

ambleteuse---rue-des-marins
---
layout: location

title: Ambleteuse - Rue des Marins
lat: 50.80777887146253
lon: 1.601600646972656
assets: photos/Ambleteuse/Ambleteuse2
---

audresselles---rue-des-meduses
---
layout: location

title: Audresselles - Rue des Méduses
lat: 50.828330732666274
lon: 1.5921592712402344
assets: photos/Audresselles/Audresselles
---

ault---marais-de-woignarue
---
layout: location

title: Ault - Marais de Woignarue
lat: 50.128722201913185
lon: 1.4622116088867188
assets: photos/Ault/Ault4
---

ault---boulevard-de-la-mer
---
layout: location

title: Ault - Boulevard de la Mer
lat: 50.11914723389384
lon: 1.446075439453125
assets: photos/Ault/Ault3
---

ault---plage-donival
---
layout: location

title: Ault - Plage d'Onival
lat: 50.10979053022197
lon: 1.4342308044433594
assets: photos/Ault/Ault2
---

ault---cote-dalbatre
---
layout: location

title: Ault - Côte d'Albatre
lat: 50.101312879065354
lon: 1.4225578308105469
assets: photos/Ault/Ault1
---

ambleteuse---boulevard-de-la-liberte
---
layout: location

title: Ambleteuse - Boulevard de la Liberté
lat: 50.81786613934891
lon: 1.5976524353027344
assets: photos/Ambleteuse/Ambleteuse3
---

fecamp---cap-fagnet
---
layout: location

title: Fécamp - Cap Fagnet
lat: 49.77095456027935
lon: 0.37490844726562494
assets: photos/Fecamp/Fecamp2
---

wissant---front-de-mer
---
layout: location

title: Wissant - Front de Mer
lat: 50.89133975549117
lon: 1.6534423828125
assets: photos/Wissant/Wissant2
---

westende
---
layout: location

title: Westende
lat: 51.181710380278176
lon: 2.7448654174804688
assets: photos/Westende/Westende
---

fecamp---promenade-du-littoral
---
layout: location

title: Fécamp - Promenade du Littoral
lat: 49.76064286903077
lon: 0.3414344787597656
assets: photos/Fecamp/Fecamp1
---

cap-du-gris-nez
---
layout: location

title: Cap du Gris-Nez
lat: 50.871127
lon: 1.583981
assets: photos/CapGrisNez/CapGrisNez
---

wissant
---
layout: location

title: Wissant
lat: 50.885167226255746
lon: 1.6343879699707031
assets: photos/Wissant/Wissant4
---

wissant---rue-chopin
---
layout: location

title: Wissant - Rue Chopin
lat: 50.90032636180673
lon: 1.6673469543457031
assets: photos/Wissant/Wissant1
---

cap-du-blanc-nez
---
layout: location

title: Cap du Blanc-Nez
lat: 50.92943971127504
lon: 1.7045974731445312
assets: photos/CapBlancNez/CapBlancNez
---

sangattes
---
layout: location

title: Sangattes
lat: 50.95372297060961
lon: 1.7676830291748047
assets: photos/Sangattes/Sangattes
---

calais
---
layout: location

title: Calais
lat: 50.974210550868904
lon: 1.8395233154296873
assets: photos/Calais/Calais
---

gruinard-bay---scotland
---
layout: location

title: Gruinard Bay - Scotland
lat: 57.853015
lon: -5.472814
assets: photos/Gruinard/gruinardbay
---

shieldaig---scotland
---
layout: location

title: Shieldaig - Scotland
lat: 57.540247
lon:  -5.719279
assets: photos/Shieldaig/shieldaig.jpeg
---

berck
---
layout: location

title: Berck
lat: 50.40107765043511
lon: 1.5610885620117188
assets: photos/Berck/Berck
---

lochinver
---
layout: location

title: Lochinver
lat: 58.141184
lon: -5.239547
assets: photos/Ecosse/Lochinver/Lochinver
---

loch-stack
---
layout: location

title: Loch Stack
lat: 58.323847
lon: -4.911919
assets: photos/Ecosse/LochStack/Loch-Stack.jpeg
---

dynjandi
---
layout: location

title: Dynjandi
lat: 65.728084
lon: -23.171527
assets: photos//Iceland/Dynjandi/Dynjandi
---

hverfjall---iceland
---
layout: location

title: Hverfjall - Iceland
lat: 65.602547
lon: -16.874242
assets: photos/Iceland/Hverfjall/Hverfjall
---

namafjall-iceland
---
layout: location

title: Námafjall-Iceland
lat: 65.630408
lon: -16.797803
assets: photos/Iceland/Namafjall/Namafjall.jpeg
---

austurland---iceland
---
layout: location

title: Austurland - Iceland
lat: 65.701705
lon:  -14.406569
assets: photos/Iceland/Austerland/Austerland.jpeg
---

jokulsarlon---iceland
---
layout: location

title: Jokulsarlon - Iceland
lat: 64.056702
lon: -16.170401
assets: photos/Iceland/Jokulsarlon/Jokulsarlon
---

kyle-of-tongue
---
layout: location

title: Kyle Of Tongue
lat: 58.492764
lon: -4.443483
assets: photos/Ecosse/KyleofTongue/KyleofTongue
---

ballehage-strand---aarhus-
---
layout: location

title: Ballehage Strand - Aarhus
lat: 56.121812
lon: 10.225682
assets: photos/Danemark/BallehageStrand/BallehageStrand
---

strandvejen---danemark
---
layout: location

title: Strandvejen - Danemark
lat: 56.132926
lon: 10.211470
assets: photos/Danemark/Strandvejen/Strandvejen
---

ebeltoft---danemark
---
layout: location

title: Ebeltoft - Danemark
lat: 56.194834
lon: 10.672940
assets: photos/Danemark/Ebeltoft/Ebeltoft
---

molsveg---danemark
---
layout: location

title: Molsveg - Danemark
lat: 56.276886
lon: 10.500108
assets: photos/Danemark/Molsveg/Molsveg
---

kal-slotsruin
---
layout: location

title: Kalø Slotsruin
lat: 56.275849
lon: 10.466669
assets: photos/Danemark/KaloSlotsruin/KaloSlotsruin
---

astrup-strandvej
---
layout: location

title: Åstrup Strandvej
lat: 56.244298
lon: 10.342944
assets: photos/Danemark/Astrup/Astrup
---

iceland---reykjavik
---
layout: location

title: Iceland - Reykjavik
lat: 64.143456
lon: -21.927270
assets: photos/Iceland/Reykjavik/Reykjavik
---

krafla---islande
---
layout: location

title: Krafla - Islande
lat: 65.724887
lon: -16.811964
assets: photos/Iceland/Krafla/Krafla
---

geilo---norvege
---
layout: location

title: Geilo - Norvège
lat: 60.534696
lon: 8.206724
assets: photos/Norvege/Geilo/Geilo
---

finse---norvege
---
layout: location

title: Finse - Norvège
lat: 60.607752
lon: 7.504648
assets: photos/Norvege/Finse/Finse
---

baie-des-tortues---bourail
---
layout: location

title: Baie des Tortues - Bourail
lat: -21.603901
lon: 165.454402
assets: photos/Nouvelle-Caledonie/Baie-des-Tortues/Baie-des-Tortues
---

nouvelle--caledonie---domaine-de-deva
---
layout: location

title: Nouvelle- Calédonie - Domaine de Deva
lat: -21.555932
lon: 165.292513
assets: photos/Nouvelle-Caledonie/Domaine-de-Deva/NC-Domaine-Deva
---

nouvelle--caledonie---baie-des-pirogues
---
layout: location

title: Nouvelle- Calédonie - Baie des Pirogues
lat: -22.299561
lon: 166.674273
assets: photos/Nouvelle-Caledonie/Baie-des-Pirogues/NC-Baie-des-Pirogues
---

nouvelle-caledonie---route-du-carenage---yate
---
layout: location

title: Nouvelle Calédonie - Route du Carénage - Yaté
lat: -22.225998
lon: 166.847850
assets: photos/Nouvelle-Caledonie/Route-Carenage/Route-du-Carenage
---

nouvelle-caledonie--route-de-prony
---
layout: location

title: Nouvelle Calédonie -Route de Prony
lat:  -22.304603
lon: 166.805492
assets: photos/Nouvelle-Caledonie/Route-Prony/NC-Route-Prony
---

nouvelle-caledonie---tiebaghi
---
layout: location

title: Nouvelle Calédonie - Tiebaghi
lat: -20.414482
lon: 164.230545
assets: photos/Nouvelle-Caledonie/Tiebaghi/Tiebaghi
---

nouvelle-caledonie---pouebo
---
layout: location

title: Nouvelle Calédonie - Pouébo
lat: -20.392296
lon: 164.579739
assets: photos/Nouvelle-Caledonie/Pouebo/Pouebo
---

nouvelle-caledonie---bopope
---
layout: location

title: Nouvelle Calédonie - Bopope
lat: -20.918731
lon: 165.061613
assets: photos/Nouvelle-Caledonie/Bopope/Bopope
---

noumea
---
layout: location

title: Nouméa
lat: -22.271706
lon: 166.445837
assets: photos/Nouvelle-Caledonie/Noumea/NC-Noumea
---
